[
{
"id": "pickwick-pub-vienna",
"name": "Pickwick’s Pub",
"address": "Marc-Aurel-Straße 10–12, 1010 Wien",
"zip": "1010",
"lat": 48.2123,
"lng": 16.3729,
"category": "Irish Pub",
"featured": false,
"image": "assets/img/bars/pickwicks.jpg",
"deals": [
{
"days": [0,1,2,3,4,5,6],
"from": "12:00",
"to": "18:00",
"text": "Happy hour drinks"
}
]
},
{
"id": "crossfield-australian-pub",
"name": "Crossfield’s Australian Pub",
"address": "Biberstraße 2, 1010 Wien",
"zip": "1010",
"lat": 48.2099,
"lng": 16.3747,
"category": "Irish Pub",
"featured": true,
"image": "assets/img/bars/crossfield.jpg",
"deals": [
{
"days": [1,2,3,4,5],
"from": "17:00",
"to": "19:00",
"text": "Beer & cocktails discounted"
}
]
},
{
"id": "first-floor-vienna",
"name": "First Floor",
"address": "Schwedenplatz 3, 1010 Wien",
"zip": "1010",
"lat": 48.2114,
"lng": 16.3761,
"category": "Cocktail Bar",
"featured": true,
"image": "assets/img/bars/first-floor.jpg",
"deals": [
{
"days": [0,1,2,3,4,5,6],
"from": "17:00",
"to": "19:00",
"text": "Cocktail happy hour"
}
]
},
{
"id": "cafe-leopold",
"name": "Café Leopold",
"address": "MuseumsQuartier, 1070 Wien",
"zip": "1070",
"lat": 48.2034,
"lng": 16.3587,
"category": "Afterwork",
"featured": false,
"image": "assets/img/bars/cafe-leopold.jpg",
"deals": [
{
"days": [4,5],
"from": "18:00",
"to": "20:00",
"text": "Afterwork drinks"
}
]
},
{
"id": "flanagans-vienna",
"name": "Flanagan’s Irish Pub",
"address": "Rotenturmstraße 1–3, 1010 Wien",
"zip": "1010",
"lat": 48.2107,
"lng": 16.3725,
"category": "Irish Pub",
"featured": true,
"image": "assets/img/bars/flanagans.jpg",
"deals": [
{
"days": [1,2,3,4,5],
"from": "16:00",
"to": "18:00",
"text": "Happy hour beers"
}
]
},
{
"id": "loft-vienna",
"name": "Das LOFT",
"address": "Praterstraße 1, 1020 Wien",
"zip": "1020",
"lat": 48.2132,
"lng": 16.3856,
"category": "Rooftop",
"featured": true,
"image": "assets/img/bars/dasloft.jpg",
"deals": [
{
"days": [0,1,2,3,4,5,6],
"from": "17:00",
"to": "19:00",
"text": "Bar specials with view"
}
]
},
{
"id": "volksgarten-disco",
"name": "Volksgarten Disco",
"address": "Burgring 1, 1010 Wien",
"zip": "1010",
"lat": 48.2058,
"lng": 16.3633,
"category": "Club",
"featured": false,
"image": "assets/img/bars/volksgarten.jpg",
"deals": [
{
"days": [4,5],
"from": "22:00",
"to": "23:30",
"text": "Club drink deals"
}
]
},
{
"id": "dublin irish-pub",
"name": "Dublin Irish Pub",
"address": "Gumpendorfer Str. 93, 1060 Vienna",
"zip": "1060",
"lat": 48.19323573580865,
"lng": 16.349113185794103,
"category": "Irish Pub",
"featured": false,
"image": "assets/img/bars/dublinirishpub.png",
"deals": [
{
"days": [0,1,2],
"from": "16:00",
"to": "01:00",
"text": "Hopfenperle beer 0,5l €3,90. Spritzer 0,5l €4.90, Gint + tonic from 21h 6,90€"
}
]
},
{
"id": "mirandabarvienna",
"name": "Miranda Bar",
"address": "Esterházygasse 12, 1060 Vienna",
"zip": "1010",
"lat": 48.19553731343012,   
"lng": 16.351687584657117,
"category": "Cocktail Bar",
"featured": false,
"image": "assets/img/bars/miranda.png",
"deals": [
{
"days": [0],
"from": "18:00",
"to": "00:00",
"text": "Champagne Monday - all drinks 14€"
}
]
},
{
"id": "belushis-vienna",
"name": "Belushi’s Vienna",
"address": "Columbusgasse 16, 1100 Wien",
"zip": "1100",
"lat": 48.18051619797995,
"lng": 16.37438486276496,
"category": "Sports Bar",
"featured": true,
"image": "assets/img/bars/belushis.jpg",
"deals": [
{ "days": [1], "from": "17:00", "to": "22:00", "text": "All burgers €10" },
{ "days": [2], "from": "17:00", "to": "22:00", "text": "All spritzers €3.5" },
{ "days": [3], "from": "17:00", "to": "22:00", "text": "Wings €0.5 per piece" },
{ "days": [4], "from": "17:00", "to": "22:00", "text": "All cocktails €7" },
{ "days": [0,1,2,3,4,5,6], "from": "17:00", "to": "21:00", "text": "1.5l Beer 10€! 241 Spirit and mixer 7€! 4x jagerbombs 12€!" }
]
},
{
"id": "travelshack",
"name": "Travelshack",
"address": "Mariahilfer Gürtel 21/4, 1150 Wien",
"zip": "1150",
"lat": 48.19277742130618,
"lng": 16.33778652883572,
"category": "Student Bar",
"featured": true,
"image": "assets/img/bars/travelshack.png",
"deals": [
{
"days": [0,1,2,3,4,5,6],
"from": "17:00",
"to": "23:00",
"text": "Long drink 1+1 free"
},
{
"days": [0,1,2,3,4,5,6],
"from": "17:00",
"to": "04:00",
"text": "Wiener Brise shots 2 for 3€ all night!"
}
]
},
{
"id": "beermama",
"name": "Beer Mama",
"address": "Favoritenstraße 95, 1100 Vienna",
"zip": "1100",
"lat": 48.17781030997161,
"lng": 16.376937410199943,
"category": "Irish Pub",
"featured": false,
"image": "assets/img/bars/travelshack.png",
"deals": [
{ "days": [1], "from": "17:00", "to": "23:00", "text": "NO Deals at the moment!"},
{ "days": [2], "from": "17:00", "to": "23:00", "text": "NO Deals at the moment!"},
{ "days": [3], "from": "17:00", "to": "23:00", "text": "NO Deals at the moment!"},
{ "days": [4], "from": "17:00", "to": "23:00", "text": "NO Deals at the moment!"},
{ "days": [5], "from": "17:00", "to": "23:00", "text": "NO Deals at the moment!"},
{ "days": [6], "from": "17:00", "to": "23:00", "text": "NO Deals at the moment!"},
{ "days": [7], "from": "17:00", "to": "23:00", "text": "NO Deals at the moment!"}
]
},
{
"id": "daiquirishotothek",
"name": "DAIQUIRI SHOTOTHEK",
"address": "Sterngasse 2, 1010 Vienna",
"zip": "1010",
"lat": 48.21544659884927,
"lng": 16.374092040668113,
"category": "Bar",
"featured": true,
"image": "assets/img/bars/DAIQUIRISHOTOTHEK.png",
"deals": [
{ "days": [5,6], "from": "19:00", "to": "21:00", "text": "2x 0,5l VODKA & ENERGY/ORANGE + 12 Shots €20!"},
{ "days": [5,6], "from": "19:00", "to": "21:00", "text": " 3x CORONA + 12 Shots 0 20€!"},
{ "days": [5,6], "from": "19:00", "to": "21:00", "text": " 2x COCKTAILS + 12 Shots 25€!"}
]
},
{
"id": "gravitybar",
"name": "GRAVITY BAR",
"address": "Rechte Wienzeile 25-27, 1040 Vienna",
"zip": "1040",
"lat": 48.19795836846784,
"lng": 16.36299744548611,
"category": "Cocktail Bar",
"featured": false,
"image": "assets/img/bars/gravitybar.png",
"deals": [
{ "days": [5,6], "from": "19:00", "to": "20:00", "text": "Cocktails from €6,50"}
]
},
{
"id": "heartbeatcocktailbar",
"name": "Heartbeat Cocktail Bar",
"address": "Ecke Sterngasse, Judengasse 7/7, 1010 Vienna",
"zip": "1010",
"lat": 48.21332465454331, 
"lng": 16.374149721538554,
"category": "Cocktail Bar",
"featured": false,
"image": "assets/img/bars/heartbeat.png",
"deals": [
{ "days": [0,1,2,3,4,5], "from": "18:00", "to": "23:00", "text": "Cocktails from €5,50"}
]
},
{
"id": "cocktailbarmeeru",
"name": "Cocktailbar Meeru",
"address": "Siebensterngasse 15, 1070 Vienna",
"zip": "1070",
"lat": 48.2032836052576,
"lng": 16.353675876052456,
"category": "Cocktail Bar",
"featured": false,
"image": "assets/img/bars/cocktailbarmeeru.png",
"deals": [
{ "days": [2,3,4,5], "from": "20:00", "to": "23:00", "text": " All Cocktails €6,50"}
]
},
{
"id": "hard-rock-cafe",
"name": "Hard Rock Cafe",
"address": "Rotenturmstraße 25, 1010 Vienna",
"zip": "1010",
"lat": 48.211453212283985,
"lng": 16.37548219670923,
"category": "Bar",
"featured": false,
"image": "assets/img/bars/hardrockcafe.png",
"deals": [
{ "days": [0,1,2,3,4,5,7], "from": "15:00", "to": "17:00", "text": " 50% OFF on SELECTED BEERS, WINE, SPIRITS, COCKTAILS & SHOTS!"},
{ "days": [0,1,2,3,4,5,7], "from": "22:00", "to": "01:00", "text": " 50% OFF on SELECTED BEERS, WINE, SPIRITS, COCKTAILS & SHOTS!"}
]
}

]

